[{
    "id":1,
    "location":"taipei",
    "name": "Babe 18",
    "number": "1",
    "timec":"N",
    "time":"星期三四日：22:00 - 03:30 星期五六：22:00 - 04:00",
    "address": "臺北市信義區松壽路18號B1（信義華納威秀）",
    "latitude":25.03568,
    "longitude":121.56681,
    "introduction":"BABE18為台北夜店中最年輕的娛樂天堂，坐落於台北時尚中心的信義區，交集於最絢麗繁華的威秀商圈，自開幕以來深受好評，BABE18聚集所有最夯最屌的元素，打造最享樂最話題的新型態台北年輕人夜生活!"
  },
  {
    "id":2,
    "location":"taipei",
    "name": "Box",
    "number": "2",
    "timec":"N",
    "time":"星期五六：22:00 - 03:30",
    "address": "臺北市中正區羅斯福路2段67號B1（捷運「古亭站」）",
    "latitude":25.02661, 
    "longitude":121.52301,
    "introduction":"在台北夜店的歷史中，不得不提一下年代久遠的9%，在上一個世代中，想到夜店就想到9%，那個時候是最多學生妹喜歡出沒的地方。經過了許多的風風雨雨，9%以Box的姿態重新出發!"
  },
  {
    "id":3,
    "location":"taipei",
    "name": "Wave",
    "number": "3",
    "timec":"N",
    "time":"星期二至日：22:00 - 04:00",
    "address": "臺北市中正區羅斯福路2段67號B1（捷運「古亭站」）",
    "latitude":25.03501, 
    "longitude":121.56609,
    "introduction":"ATT 4 FUN 派對娛樂中全新頂級夜店，台北wave夜店!，以單點高級夜店的規格，提供最親民的暢飲服務!一覽無遺的台北奢華夜景，還有三不五時就會重金請來的知名專業DJ，高科技感的千萬店內裝潢，這一切的一切結合起來，給予您最高規格的感觀派對!"
  },
  {
    "id":4,
    "location":"taipei",
    "name": "Halo",
    "number": "4",
    "timec":"N",
    "time":"星期四至日：23:00 - 03:30 星期六至日：23:00 - 04:00",
    "address": "臺北市信義區松壽路12號8F（ATT 4 FUN 購物中心8樓）",
    "latitude":25.0351, 
    "longitude":121.56602,
    "introduction":"在台北夜店的中心-ATT 4 FUN裡面，存在著一個神密又有趣的夜店，提供Lounge Bar裡面才會有的高級調酒和精緻小點，另一邊也提供Night Club一樣火熱Party的氣氛!在可挑望101美景的地方，可以一邊喝著調酒，一邊隨著火熱音樂在舞池中起舞，感受在同一個建築另一種不一樣的派對!"
  },
  {
    "id":5,
    "location":"taipei",
    "name": "Lava",
    "number": "5",
    "timec":"N",
    "time":"星期五六：22:30 - 04:00 星期三日：22:30 - 03:30",
    "address": "臺北市信義區松壽路22號B1）",
    "latitude":25.03563,
    "longitude": 121.568,
    "introduction":"許多國際時尚品牌旗艦店座落的台北信義區，潮流夜店LAVA選擇落地於此，驚艷全國的設計斥資千萬，號召知名設計師齊力打造，是近年來極致奢華的代表作。 全新店內風格於近期重新裝潢後打破夜生活的新紀元,長白型石沏的加大型吧台, 紀元高科技感的大型舞場加上閃爍LED特殊造型舞台，從一入門的時光隧道主題帶領你進入了新世紀。"
  },
  {
    "id":6,
    "location":"taipei",
    "name": "Elektro",
    "number": "6",
    "timec":"N",
    "time":"每週三22:30–03:30 每週四22:30–03:30 每週五22:30–04:00 每週六22:30– 04:00",
    "address": "臺北市信義區松壽路12號6樓 (ATT 4 FUN)",
    "latitude":25.03531, 
    "longitude":121.56607,
    "introduction":"ELEKTRO夜店位於ATT4FUN全新璀璨登場，打造全球夜店新裝潢，營造出超炫麗的燈光，僅有的聲光影音同步結合，將成為全台灣最前衛的新型態夜店"
  }]