[{
    "id":1,
    "location":"keelung",
    "name": "HoildayKTV(基隆店)",
    "number": "1",
    "timec":"N",
    "time":"",
    "address": "基隆市信義區信一路147號",
    "latitude":25.128641,
    "longitude":121.74278,
    "introduction":""
  },
  {
    "id":2,
    "location":"keelung",
    "name": "凱悅YESKTV基隆店",
    "number": "2",
    "timec":"N",
    "time":"",
    "latitude":25.128641,
    "longitude":121.74278,
    "introduction":""
  },
  {
    "id":3,
    "location":"keelung",
    "name": "歌萊KTV",
    "number": "3",
    "timec":"N",
    "time":"",
    "tel":"",
    "address": "基隆市仁愛區忠一路8號",
    "latitude":25.128641,
    "longitude":121.74278,
    "introduction":""
  },
  {
    "id":4,
    "location":"keelung",
    "name": "天籟KTV",
    "number": "4",
    "timec":"N",
    "time":"",
    "address": "基隆市仁愛區愛三路57號",
    "latitude":25.128641,
    "longitude":121.74278,
    "introduction":""
  },
  {
    "id":5,
    "location":"keelung",
    "name": "流行網",
    "number": "5",
    "timec":"N",
    "time":"",
    "address": "基隆市仁愛區愛一路43號11樓",
    "latitude":25.128641,
    "longitude":121.74278,
    "introduction":""
  },
  {
    "id":6,
    "location":"taipei",
    "name": "法老王KTV(峨眉店)",
    "number": "1",
    "timec":"N",
    "time":"",
    "tel":"",
    "address": "臺北市萬華區峨嵋街43號",
    "latitude":25.128641,
    "longitude":121.74278,
    "introduction":""
  },
  {
    "id":7,
    "location":"taipei",
    "name": "錢櫃(台北敦南店)",
    "number": "2",
    "timec":"N",
    "time":"平日11:00~次日AM07:00．假日24H",
    "tel":"(02)2731-6326",
    "address": "臺北市敦化南路一段205號2樓(敦化南路忠孝東路口)",
    "latitude":25.128641,
    "longitude":121.74278,
    "introduction":""
  },
  {
    "id":8,
    "location":"taipei",
    "name": "錢櫃(台北SOGO店)",
    "number": "3",
    "timec":"Y",
    "time":"24H",
    "tel":"(02)2771-5000",
    "address": "臺北市忠孝東路四段22號(捷運忠孝復興站3號出口)",
    "latitude":25.128641,
    "longitude":121.74278,
    "introduction":""
  },
  {
    "id":9,
    "location":"taipei",
    "name": "錢櫃(台北松江店)",
    "number": "4",
    "timec":"N",
    "time":"週一～週日 11:00～次日07:00",
    "tel":"(02)2503-1688",
    "address": "臺北市松江路199號(近民生東路口；捷運行天宮站2號出口)",
    "latitude":25.128641,
    "longitude":121.74278,
    "introduction":""
  },
  {
    "id":10,
    "location":"taipei",
    "name": "錢櫃(台北南京店)",
    "number": "5",
    "timec":"N",
    "time":"週一~週日 17:00~次日07:00",
    "tel":"(02)2560-2111",
    "address": "臺北市南京東路二段3號(近新生北路口)",
    "latitude":25.128641,
    "longitude":121.74278,
    "introduction":""
  },
  {
    "id":11,
    "location":"taipei",
    "name": "錢櫃(台北林森店)",
    "number": "6",
    "timec":"Y",
    "time":"24H",
    "tel":"(02)2537-2235",
    "address": "臺北市林森北路312號(民生東路、長春路口)",
    "latitude":25.128641,
    "longitude":121.74278,
    "introduction":""
  },
  {
    "id":12,
    "location":"taipei",
    "name": "錢櫃(台北中華新館)",
    "number": "7",
    "timec":"N",
    "time":"10：00 ~ 次日 07：00",
    "tel":"(02)2361-9898",
    "address": "臺北市中華路一段55號(捷運西門站4號出口)",
    "latitude":25.128641,
    "longitude":121.74278,
    "introduction":""
  },
  {
    "id":13,
    "location":"taipei",
    "name": "星聚點(西門)",
    "number": "8",
    "timec":"N",
    "time":"週一至週四 10:00 ~ 次日06:15週五 10:00 ~ 次日08:00週六 08:00 ~ 次日08:00週日 08:00 ~ 次日06:15",
    "tel":"(02)2388-6000",
    "address": "臺北市成都路 81號 (近國賓戲院對面)",
    "latitude":25.128641,
    "longitude":121.74278,
    "introduction":""
  },
  {
    "id":14,
    "location":"taipei",
    "name": "星聚點(復興)",
    "number": "9",
    "timec":"N",
    "time":"週一至週四11:00 ~ 次日06:45週五 11:00 ~ 次日08:00週六 08:00 ~ 次日08:00週日 08:00 ~ 次日06:45",
    "tel":"(02)2781-7700",
    "address": "臺北市復興北路15號 (復興北路長安東路口)",
    "latitude":25.128641,
    "longitude":121.74278,
    "introduction":""
  },
  {
    "id":14,
    "location":"taipei",
    "name": "Holiday(松隆店)",
    "number": "9",
    "timec":"N",
    "time":"每日09:30-次日06:00",
    "tel":"(02)2769-1099",
    "address": "臺北市信義區松隆路327號B1",
    "latitude":25.128641,
    "longitude":121.74278,
    "introduction":""
  },
  {
    "id":14,
    "location":"taipei",
    "name": "Holiday(西寧店)",
    "number": "9",
    "timec":"Y",
    "time":"24H",
    "tel":"(02)2388-0768",
    "address": "臺北市西寧南路62號 ",
    "latitude":25.128641,
    "longitude":121.74278,
    "introduction":""
  },
  {
    "id":14,
    "location":"taipei",
    "name": "Holiday(中興店)",
    "number": "9",
    "timec":"N",
    "time":"每日12:00~次日06:00",
    "tel":"(02)2781-7700",
    "address": "臺北市復興南路一段29號",
    "latitude":25.128641,
    "longitude":121.74278,
    "introduction":""
  },
  {
    "id":14,
    "location":"taipei",
    "name": "Holiday(景美店)",
    "number": "9",
    "timec":"Y",
    "time":"24H",
    "tel":"(02)2934-8000",
    "address": "臺北市羅斯福路六段403號1-2F",
    "latitude":25.128641,
    "longitude":121.74278,
    "introduction":""
  },
  {
    "id":14,
    "location":"taipei",
    "name": "Holiday(內湖店)",
    "number": "9",
    "timec":"N",
    "time":"",
    "tel":"(02)2795-1389",
    "address": "臺北市成功路四段68號B1",
    "latitude":25.128641,
    "longitude":121.74278,
    "introduction":""
  },
  {
    "id":14,
    "location":"taipei",
    "name": "Holiday(錦州店)",
    "number": "9",
    "timec":"Y",
    "time":"24H",
    "tel":"(02)2571-1912",
    "address": "臺北市錦州街19號",
    "latitude":25.128641,
    "longitude":121.74278,
    "introduction":""
  },
  {
    "id":14,
    "location":"taipei",
    "name": "Holiday(石牌店)",
    "number": "9",
    "timec":"N",
    "time":"10:00～06:00",
    "tel":"(02)2822-2168",
    "address": "臺北市北投區裕民六路128號",
    "latitude":25.128641,
    "longitude":121.74278,
    "introduction":""
  },
  {
    "id":14,
    "location":"taipei",
    "name": "Holiday(木柵店)",
    "number": "9",
    "timec":"N",
    "time":"週一~五14-06、週六~日12-06",
    "tel":"(02)8661-6308",
    "address": "臺北市木柵路三段96號B1",
    "latitude":25.128641,
    "longitude":121.74278,
    "introduction":""
  },
  {
    "id":14,
    "location":"taipei",
    "name": "Holiday(館前店)",
    "number": "9",
    "timec":"N",
    "time":"週一~五11-05、週六~日10-05",
    "tel":"(02)02-2381-9208",
    "address": "臺北市館前路34號",
    "latitude":25.128641,
    "longitude":121.74278,
    "introduction":""
  },
  {
    "id":14,
    "location":"taipei",
    "name": "Holiday(通化店)",
    "number": "9",
    "timec":"N",
    "time":"每日12:00-次日06:00",
    "tel":"(02)2739-4288",
    "address": "臺北市信義區基隆路二段111號",
    "latitude":25.128641,
    "longitude":121.74278,
    "introduction":""
  },
  {
    "id":16,
    "location":"ntaipei",
    "name": "星光大道KTV",
    "number": "1",
    "timec":"Y",
    "time":"24H",
    "tel":"(02)2924-1998",
    "address": "新北市永和區永和路二段209號2樓(捷運頂溪站2號出口旁)",
    "latitude":25.128641,
    "longitude":121.74278,
    "introduction":""
  },
  {
    "id":17,
    "location":"ntaipei",
    "name": "錢櫃(板橋館前店)",
    "number": "2",
    "timec":"Y",
    "time":"24H",
    "tel":"(02)2957-1000",
    "address": "新北市板橋區館前西路6號(捷運府中站1.2號出口)",
    "latitude":25.128641,
    "longitude":121.74278,
    "introduction":""
  },
  {
    "id":15,
    "location":"ntaipei",
    "name": "錢櫃(永和樂華店)",
    "number": "3",
    "timec":"N",
    "time":"平日 PM02:00~次日AM07:00假日 AM11:00~次日AM07:00",
    "tel":"(02)2921-6688",
    "address": "新北市永和區永和路一段129號(永平路口，臨樂華夜市)",
    "latitude":25.128641,
    "longitude":121.74278,
    "introduction":""
  },
  {
    "id":16,
    "location":"ntaipei",
    "name": "星聚點(板橋)",
    "number": "4",
    "timec":"N",
    "time":"週一至週四 10:30 ~ 次日06:00週五 10:30 ~ 次日08:00週六 08:00 ~ 次日08:00週日 08:00 ~ 次日06:00",
    "tel":"(02)2950-6565",
    "address": "新北市板橋區中山路一段1號",
    "latitude":25.128641,
    "longitude":121.74278,
    "introduction":""
  },
  {
    "id":14,
    "location":"ntaipei",
    "name": "Holiday(三重店)",
    "number": "9",
    "timec":"N",
    "time":"週一~五11-06、週六~日10-06",
    "tel":"(02)2988-3411",
    "address": "新北市三重區正義北路68號",
    "latitude":25.128641,
    "longitude":121.74278,
    "introduction":""
  },
  {
    "id":14,
    "location":"ntaipei",
    "name": "Holiday(蘆洲店)",
    "number": "9",
    "timec":"N",
    "time":"週日~週四11:00~06:00、週五~週六11:00~07:00",
    "tel":"(02)2280-7676",
    "address": "新北市蘆洲區長榮路238號 ",
    "latitude":25.128641,
    "longitude":121.74278,
    "introduction":""
  },
  {
    "id":14,
    "location":"ntaipei",
    "name": "Holiday(板前店)",
    "number": "9",
    "timec":"Y",
    "time":"24H",
    "tel":"(02)2965-7038",
    "address": "新北市板橋區南雅南路一段8號",
    "latitude":25.128641,
    "longitude":121.74278,
    "introduction":""
  },
  {
    "id":14,
    "location":"ntaipei",
    "name": "Holiday(板後店)",
    "number": "9",
    "timec":"N",
    "time":"週一~五10-06、週六~日24H",
    "tel":"(02)2961-0085",
    "address": "新北市板橋區館前東路 106號",
    "latitude":25.128641,
    "longitude":121.74278,
    "introduction":""
  },
  {
    "id":14,
    "location":"ntaipei",
    "name": "Holiday(樹林店)",
    "number": "9",
    "timec":"Y",
    "time":"24H",
    "tel":"(02)2675-6766",
    "address": "新北市復興北路15號 (復興北路長安東路口)",
    "latitude":25.128641,
    "longitude":121.74278,
    "introduction":""
  },
  {
    "id":14,
    "location":"ntaipei",
    "name": "Holiday(雙和店)",
    "number": "9",
    "timec":"N",
    "time":"11:00～06:00",
    "tel":"(02)3233-3737",
    "address": "新北市永和區中和路345號",
    "latitude":25.128641,
    "longitude":121.74278,
    "introduction":""
  },
  {
    "id":14,
    "location":"ntaipei",
    "name": "Holiday(南勢店)",
    "number": "9",
    "timec":"Y",
    "time":"24H",
    "tel":"(02)2781-7700",
    "address": "新北市中和區安樂路1號",
    "latitude":25.128641,
    "longitude":121.74278,
    "introduction":""
  },
  {
    "id":14,
    "location":"ntaipei",
    "name": "Holiday(土城店)",
    "number": "9",
    "timec":"N",
    "time":"12:00~06:00",
    "tel":"(02)2262-1708",
    "address": "新北市土城區中央路二段211號",
    "latitude":25.128641,
    "longitude":121.74278,
    "introduction":""
  },
  {
    "id":14,
    "location":"ntaipei",
    "name": "Holiday(重陽店)",
    "number": "9",
    "timec":"Y",
    "time":"24H",
    "tel":"(02)2781-7700",
    "address": "新北市三重區重陽路1段1號",
    "latitude":25.128641,
    "longitude":121.74278,
    "introduction":""
  },
  {
    "id":14,
    "location":"ntaipei",
    "name": "Holiday(埔墘店)",
    "number": "9",
    "timec":"N",
    "time":"12:00~06:00",
    "tel":"(02)2957-6836",
    "address": "新北市板橋區三民路一段183號B1",
    "latitude":25.128641,
    "longitude":121.74278,
    "introduction":""
  },
  {
    "id":14,
    "location":"ntaipei",
    "name": "Holiday(淡水店)",
    "number": "9",
    "timec":"N",
    "time":"每日10:00~次日06:00",
    "tel":"(02)2626-6826",
    "address": "新北市淡水區中正路250號",
    "latitude":25.128641,
    "longitude":121.74278,
    "introduction":""
  },
  {
    "id":14,
    "location":"ntaipei",
    "name": "Holiday(三峽店)",
    "number": "9",
    "timec":"N",
    "time":"12:00～06:00",
    "tel":"(02)8674-3777",
    "address": "新北市三峽區文化路59號2F ",
    "latitude":25.128641,
    "longitude":121.74278,
    "introduction":""
  },
  {
    "id":14,
    "location":"ntaipei",
    "name": "Holiday(汐止店)",
    "number": "9",
    "timec":"N",
    "time":"週日~週四13:00~06:00；週五~週六13:00~07:00",
    "tel":"(02)8693-2288",
    "address": "新北市汐止區中興路158號-1、160號",
    "latitude":25.128641,
    "longitude":121.74278,
    "introduction":""
  }]
  