[
  {
    "id":1,
    "location":"keelung",
    "name": "上海19吧",
    "number": "1",
    "timec":"Y",
    "time":"21:00-04:00",
    "tel":"(02)2421-5919",
    "address": "基隆市中正區義二路2巷11號",
    "latitude":25.13075, 
    "longitude":121.74565,
    "introduction":"",
    "food":""
  },
    {
    "id":2,
    "location":"keelung",
    "name": "基隆大機器PUB",
    "number": "2",
    "timec":"Y",
    "time":"21:00–06:00",
    "tel":"(02) 2426-0131",
    "address": "基隆市信義區仁一路49號",
    "latitude":25.12791, 
    "longitude":121.75477,
    "introduction":"",
    "food":""
  },
   {
    "id":3,
    "location":"keelung",
    "name": "Live House Bar",
    "number": "3",
    "timec":"Y",
    "time":"20:00–03:00",
    "tel":"(02)2420-1780",
    "address": "基隆市仁愛區愛一路33號",
    "latitude":25.12933, 
    "longitude":121.74141,
    "introduction":"",
    "food":""
  },
  {
    "id":4,
    "location":"keelung",
    "name": "艾克猴.The Alcohol Bar.威士忌酒吧",
    "number": "4",
    "timec":"Y",
    "time":"19:00–02:00",
    "tel":"(02)2425-2795",
    "address": "基隆市仁愛區忠一路3巷23號",
    "latitude":25.13008, 
    "longitude":121.74091,
    "introduction":"",
    "food":""
  },
  {
    "id":5,
    "location":"keelung",
    "name": "Ocean Bar",
    "number": "5",
    "timec":"Y",
    "time":"20:00–04:00",
    "tel":"0916-776-415",
    "address": "基隆市仁愛區孝二路71號",
    "latitude":25.12961,
    "longitude":121.74,
    "introduction":"",
    "food":""
  },
  {
    "id":6,
    "location":"keelung",
    "name": "基隆1973海景駐唱餐廳",
    "number": "6",
    "timec":"Y",
    "time":"12:00-22:30",
    "tel":"(02)2428-1273",
    "address": "基隆市中山二路51巷132號",
    "latitude":25.13872, 
    "longitude":121.73912,
    "introduction":"",
    "food":""
  },
  {
    "id":7,
    "location":"taipei",
    "name": "BEAU",
    "number": "1",
    "timec":"Y",
    "time":"20:00–04:00",
    "tel":"(02)2704-2189",
    "address": "臺北市大安區仁愛路四段408巷11號",
    "latitude":25.12933, 
    "longitude":121.74141,
    "introduction":"",
    "food":""
  },
  {
    "id":7,
    "location":"taipei",
    "name": "FiFi茶酒沙龍 W Bar",
    "number": "1",
    "timec":"Y",
    "time":"19:00 ~ 03:00",
    "tel":"(02)2779-0528",
    "address": "臺北市大安區仁愛路四段15號",
    "latitude":25.03821,  
    "longitude":121.5446,
    "introduction":"",
    "food":""
  },
  {
    "id":8,
    "location":"taipei",
    "name": "BEAU",
    "number": "2",
    "timec":"Y",
    "time":"20:00–04:00",
    "tel":"0916-776-415",
    "address": "臺北市大安區仁愛路四段408巷11號",
    "latitude":25.12933, 
    "longitude":121.74141,
    "introduction":"",
    "food":""
  },
  {
    "id":9,
    "location":"taipei",
    "name": "Elfin Restaurant & Lounge",
    "number": "3",
    "timec":"Y",
    "time":"18:00 ~ 02:00",
    "tel":"(02)2731-0102",
    "address": "臺北市大安區復興南路一段107巷5弄21號",
    "latitude":25.04426, 
    "longitude":121.54523,
    "introduction":"",
    "food":""
  },
  {
    "id":10,
    "location":"taipei",
    "name": "CHORD CaféxBistro 和弦咖啡酒食館",
    "number": "4",
    "timec":"Y",
    "time":"18:00 ~ 02:00",
    "tel":"(02)2708-7003",
    "address": "臺北市大安區文昌街128號（近信義安和站3號出口）",
    "latitude":25.03253, 
    "longitude":121.55261,
    "introduction":"",
    "food":""
  },
  {
    "id":11,
    "location":"taipei",
    "name": "EAST END",
    "number": "5",
    "timec":"Y",
    "time":"14:00 ~ 01:00",
    "tel":"0903-531-851",
    "address": "臺北市大安區大安路一段56號",
    "latitude":25.04299, 
    "longitude":121.54602,
    "introduction":"",
    "food":""
  },
  {
    "id":12,
    "location":"taipei",
    "name": "SoShow Bar & Restaurant",
    "number": "6",
    "timec":"Y",
    "time":"19:00 ~ 02:00",
    "tel":"0933-167-338",
    "address": "臺北市大同區華陰街50號4樓",
    "latitude":25.05392, 
    "longitude":121.51395,
    "introduction":"",
    "food":""
  },
  {
    "id":13,
    "location":"taipei",
    "name": "High9",
    "number": "7",
    "timec":"Y",
    "time":"20:30 ~ 03:00",
    "tel":"(02)2747-0085",
    "address": "臺北市松山區塔悠路60號2F",
    "latitude":25.05205, 
    "longitude":121.57006,
    "introduction":"",
    "food":""
  },
  {
    "id":14,
    "location":"taipei",
    "name": "BP Restaurant and Lounge",
    "number": "8",
    "timec":"Y",
    "time":"17:30 ~ 03:00",
    "tel":"(02)8772-3595",
    "address": "臺北市中山區遼寧街119號2樓",
    "latitude":25.05146, 
    "longitude":121.54203,
    "introduction":"",
    "food":""
  },
  {
    "id":15,
    "location":"taipei",
    "name": "La Esquina 轉角酒吧",
    "number": "9",
    "timec":"Y",
    "time":"20:00 ~ 05:00",
    "tel":"(02)2521-1959",
    "address": "臺北市中山區長安東路一段53巷1-6號",
    "latitude":25.04931, 
    "longitude":121.52657,
    "introduction":"",
    "food":""
  },
  {
    "id":16,
    "location":"taipei",
    "name": "Intention",
    "number": "10",
    "timec":"Y",
    "time":"17:00 ~ 01:00",
    "tel":"(02)8772-7265",
    "address": "臺北市大安區延吉街131巷24號",
    "latitude":25.04266, 
    "longitude":121.55544,
    "introduction":"",
    "food":""
  },
  {
    "id":17,
    "location":"ntaipei",
    "name": "BRAVO Beer 布娜飛(板橋環球店)",
    "number": "1",
    "timec":"Y",
    "time":"11:00~24:00",
    "tel":"(02)8969-1766",
    "address": "新北市板橋區縣民大道二段7號2樓",
    "latitude":25.01479, 
    "longitude":121.46394,
    "introduction":"",
    "food":""
  },
  {
    "id":18,
    "location":"ntaipei",
    "name": "樹下 Undertree",
    "number": "2",
    "timec":"Y",
    "time":"18:00~02:30",
    "tel":"(02)2629-4166",
    "address": "新北市淡水區北新路182巷20號",
    "latitude":25.17807, 
    "longitude":121.44889,
    "introduction":"",
    "food":""
  },
  {
    "id":19,
    "location":"ntaipei",
    "name": "愛微醺Bar",
    "number": "3",
    "timec":"N",
    "time":"暫無提供",
    "tel":"(02)2908-7727",
    "address": "臺北市新北市新莊區新北市新莊區中正路879號",
    "latitude":25.02667, 
    "longitude":121.41802,
    "introduction":"",
    "food":""
  }
  ]
